{
    "doctors": [
        {
            "id": 1,
            "name": "Dr. John Smith",
            "phone": "+1234567890",
            "category": "Surgery",
            "title": "Cardiothoracic Surgeon",
            "address": "123 Main Street, City, Country",
            "picture": "john_smith.jpg",
            "lat" : "36.73328994348616",
            "lng" :"10.2477452962453",
            "available" : "oui"
        },
        {
            "id": 2,
            "name": "Dr. Emily Johnson",
            "phone": "+1987654321",
            "category": "Orthopedics",
            "title": " Orthopedic Dermatologist",
            "address": "456 Elm Street, City, Country",
            "picture": "emily_johnson.jpg",
            "lat" : "37.27054169136575",
            "lng" :"9.875153267435568",
            "available" : "non"
        },
        {
            "id": 3,
            "name": "Dr. Michael Brown",
            "phone": "+1122334455",
            "category": "Paediatrics",
            "title": "Pediatrician",
            "address": "789 Oak Avenue, City, Country",
            "picture": "michael_brown.jpg",
            "lat" : "33.81341833645965",   
            "lng" :"10.99099034832483",
            "available" : "oui"
        },
        {
            "id": 4,
            "name": "Dr. Sarah Lee",
            "phone": "+1555666777",
            "category": "OBG",
            "title": "Obstetrician-Gynecologist (OBGYN)",
            "address": "101 Pine Street, City, Country",
            "picture": "sarah_lee.jpg",
            "lat" : "36.81536172391417",
            "lng" :"10.103082011592656",
            "available" : "non"
        },
        {
            "id": 5,
            "name": "Dr. David Miller",
            "phone": "+1444333222",
            "category": "Cardiology",
            "title": "Cardiac Surgeon",
            "address": "202 Maple Road, City, Country",
            "picture": "david_miller.jpg",
            "lat" : "36.73328994348616",
            "lng" :"10.2477452962453",
            "available" : "non"
        },
        {
            "id": 6,
            "name": "Dr. Maria Garcia",
            "phone": "+1666999888",
            "category": "Neurology",
            "title": "Neurocardiologist",
            "address": "303 Cedar Lane, City, Country",
            "picture": "maria_garcia.jpg",
            "lat" : "36.73328994348616",
            "lng" :"10.2477452962453",
            "available" : "non"
        },
        {
            "id": 7,
            "name": "Dr. James Wang",
            "phone": "+1777888999",
            "category": "Pulmonology",
            "title": "Pulmonary Dermatologist",
            "address": "404 Birch Street, City, Country",
            "picture": "james_wang.jpg",
            "lat" : "36.73328994348616",
            "lng" :"10.2477452962453",
            "available" : "oui"
        },
        {
            "id": 8,
            "name": "Dr. Rachel Patel",
            "phone": "+1888999000",
            "category": "Surgery",
            "title": "Pediatric Surgeon",
            "address": "505 Walnut Avenue, City, Country",
            "picture": "rachel_patel.jpg",
            "lat" : "36.73328994348616",
            "lng" :"10.2477452962453",
            "available" : "non"
        },
        {
            "id": 9,
            "name": "Dr. Daniel Kim",
            "phone": "+1999000111",
            "category": "Orthopedics",
            "title": "Orthopedic Obstetrician-Gynecologist (OBGYN)",
            "address": "606 Pine Road, City, Country",
            "picture": "daniel_kim.jpg",
            "lat" : "36.73328994348616",
            "lng" :"10.2477452962453",
            "available" : "oui"
        },
        {
            "id": 10,
            "name": "Dr. Jennifer Lopez",
            "phone": "+2000111222",
            "category": "Paediatrics",
            "title": "Pediatric Orthopedic Surgeon",
            "address": "707 Oak Street, City, Country",
            "picture": "jennifer_lopez.jpg",
            "lat" : "36.73328994348616",
            "lng" :"10.2477452962453",
            "available" : "oui"
        },
        {
            "id": 11,
            "name": "Dr. William Chen",
            "phone": "+2111222333",
            "category": "OBG",
            "title": "Cardiovascular Specialist",
            "address": "808 Elm Avenue, City, Country",
            "picture": "william_chen.jpg",
            "lat" : "36.73328994348616",
            "lng" :"10.2477452962453",
            "available" : "non"
        },
        {
            "id": 12,
            "name": "Dr. Michelle Adams",
            "phone": "+2222333444",
            "category": "Cardiology",
            "title": "Cardiologist Dermatologist",
            "address": "909 Maple Lane, City, Country",
            "picture": "michelle_adams.jpg",
            "lat" : "36.73328994348616",
            "lng" :"10.2477452962453",
            "available" : "non"
        },
        {
            "id": 13,
            "name": "Dr. Alexander Wilson",
            "phone": "+2333444555",
            "category": "Neurology",
            "title": "Pediatric Neurologist",
            "address": "1010 Cedar Street, City, Country",
            "picture": "alexander_wilson.jpg",
            "lat" : "36.73328994348616",
            "lng" :"10.2477452962453",
            "available" : "oui"
        },
        {
            "id": 14,
            "name": "Dr. Olivia Martinez",
            "phone": "+2444555666",
            "category": "Pulmonology",
            "title": "Obstetric Pulmonologist",
            "address": "1111 Pine Avenue, City, Country",
            "picture": "olivia_martinez.jpg",
            "lat" : "36.73328994348616",
            "lng" :"10.2477452962453",
            "available" : "oui"
        },
        {
            "id": 15,
            "name": "Dr. Ethan Thompson",
            "phone": "+2555666777",
            "category": "Surgery",
            "title": "Orthopedic Surgeon",
            "address": "1212 Elm Road, City, Country",
            "picture": "ethan_thompson.jpg",
            "lat" : "36.73328994348616",
            "lng" :"10.2477452962453",
            "available" : "non"
        },
        {
            "id": 16,
            "name": "Dr. Isabella White",
            "phone": "+2666777888",
            "category": "Orthopedics",
            "title": "Cardiothoracic Specialist",
            "address": "1313 Oak Lane, City, Country",
            "picture": "isabella_white.jpg",
            "lat" : "36.73328994348616",
            "lng" :"10.2477452962453",
            "available" : "non"
        },
        {
            "id": 17,
            "name": "Dr. Jacob Taylor",
            "phone": "+2777888999",
            "category": "Paediatrics",
            "title": "Pediatric Dermatologist",
            "address": "1414 Cedar Street, City, Country",
            "picture": "jacob_taylor.jpg",
            "lat" : "36.73328994348616",
            "lng" :"10.2477452962453",
            "available" : "oui"
        },
        {
            "id": 18,
            "name": "Dr. Sophia Harris",
            "phone": "+2888999000",
            "category": "OBG",
            "title": "Pediatric Obstetrician-Gynecologist (OBGYN)",
            "address": "1515 Maple Avenue, City, Country",
            "picture": "sophia_harris.jpg",
            "lat" : "36.73328994348616",
            "lng" :"10.2477452962453",
            "available" : "non"
        },
        {
            "id": 19,
            "name": "Dr. Benjamin Clark",
            "phone": "+2999000111",
            "category": "Cardiology",
            "title": "Cardiac Obstetrician-Gynecologist (OBGYN)",
            "address": "1616 Pine Road, City, Country",
            "picture": "benjamin_clark.jpg",
            "lat" : "36.73328994348616",
            "lng" :"10.2477452962453",
            "available" : "non"
        },
        {
            "id": 20,
            "name": "Dr. Chloe Baker",
            "phone": "+3000111222",
            "category": "Neurology",
            "title": " Neurosurgical Orthopedist",
            "address": "1717 Elm Street, City, Country",
            "picture": "chloe_baker.jpg",
            "lat" : "36.73328994348616",
            "lng" :"10.2477452962453",
            "available" : "oui"
        }
    ],
    
    "category": [
        {
            "id": 1,
            "name": "Surgery",
            "alias": "surgery"
            
        },
        {
            "id": 2,
            "name": "Orthopedics",
            "alias": "orthopedics"
        },
          {
            "id": 3,
            "name": "Paediatrics",
            "alias": "paediatrics"
        },
        {
            "id": 4,
            "name": "OBG",
            "alias": "obg"
        },
        {
            "id": 5,
            "name": "Cardiology",
            "alias": "cardiology"
        },
        {
            "id": 6,
            "name": "Neurology",
            "alias": "neurology"
        },
        {
            "id": 7,
            "name": "Pulmonology",
            "alias": "pulmonology"
        }
    ]
}
